stop_id,stop_code,stop_name,stop_desc,stop_lat,stop_lon,zone_id,stop_url,location_type,parent_station,stop_timezone,wheelchair_boarding
1001,,渋川,,36.49123,139.00879,1001,,0,,,
1002,,金島,,36.52958,138.97642,1002,,0,,,
1003,,祖母島,,36.54074,138.95706,1003,,0,,,
1004,,小野上,,36.55249,138.92224,1004,,0,,,
1005,,小野上温泉,,36.55690,138.90431,1005,,0,,,
1006,,市城,,36.57064,138.88228,1006,,0,,,
1007,,中之条,,36.58541,138.85148,1007,,0,,,
1008,,群馬原町,,36.57170,138.82416,1008,,0,,,
1009,,郷原,,36.54873,138.80110,1009,,0,,,
1010,,矢倉,,36.55276,138.78426,1010,,0,,,
1011,,岩島,,36.56324,138.75994,1011,,0,,,
1012,,川原湯温泉,,36.54509,138.69723,1012,,0,,,
1013,,長野原草津口,,36.54650,138.64964,1013,,0,,,
1014,,群馬大津,,36.55381,138.62809,1014,,0,,,
1015,,羽根尾,,36.55016,138.60550,1015,,0,,,
1016,,袋倉,,36.54402,138.57918,1016,,0,,,
1017,,万座・鹿沢口,,36.53202,138.55140,1017,,0,,,
1018,,大前,,36.51358,138.52902,1018,,0,,,
1101,JC01,東京,,35.68116,139.76713,1101,,0,,,
1102,JC02,神田,,35.69177,139.77088,1102,,0,,,
1103,JC03,御茶ノ水,,35.69960,139.76503,1103,,0,,,
1104,JC04,四ツ谷,,35.68565,139.73054,1104,,0,,,
1105,JC05,新宿,,35.69019,139.70062,1105,,0,,,
1106,JC06,中野,,35.70580,139.66572,1106,,0,,,
1107,JC07,高円寺,,35.70532,139.64970,1107,,0,,,
1108,JC08,阿佐ケ谷,,35.70488,139.63586,1108,,0,,,
1109,JC09,荻窪,,35.70443,139.62024,1109,,0,,,
1110,JC10,西荻窪,,35.70378,139.59945,1110,,0,,,
1111,JC11,吉祥寺,,35.70314,139.57981,1111,,0,,,
1112,JC12,三鷹,,35.70270,139.56064,1112,,0,,,
1113,JC13,武蔵境,,35.70209,139.54356,1113,,0,,,
1114,JC14,東小金井,,35.70156,139.52376,1114,,0,,,
1115,JC15,武蔵小金井,,35.70104,139.50593,1115,,0,,,
1116,JC16,国分寺,,35.70014,139.48086,1116,,0,,,
1117,JC17,西国分寺,,35.69973,139.46592,1117,,0,,,
1118,JC18,国立,,35.69920,139.44642,1118,,0,,,
1119,JC19,立川,,35.69790,139.41377,1119,,0,,,
1120,JC20,日野,,35.67854,139.39343,1120,,0,,,
1121,JC21,豊田,,35.65945,139.38146,1121,,0,,,
1122,JC22,八王子,,35.65550,139.33882,1122,,0,,,
1123,JC23,西八王子,,35.65628,139.31200,1123,,0,,,
1124,JC24,高尾,,35.64238,139.28264,1124,,0,,,
1201,JB39,千葉,,35.61360,140.11355,1201,,0,,,
1202,JB38,西千葉,,35.62263,140.10332,1202,,0,,,
1203,JB37,稲毛,,35.63731,140.09256,1203,,0,,,
1204,JB36,新検見川,,35.65180,140.07334,1204,,0,,,
1205,JB35,幕張,,35.65954,140.05782,1205,,0,,,
1206,JB34,幕張本郷,,35.67290,140.04208,1206,,0,,,
1207,JB33,津田沼,,35.69137,140.02022,1207,,0,,,
1208,JB32,東船橋,,35.69983,140.00407,1208,,0,,,
1209,JB31,船橋,,35.70174,139.98468,1209,,0,,,
1210,JB30,西船橋,,35.70771,139.95858,1210,,0,,,
1211,JB29,下総中山,,35.71428,139.94307,1211,,0,,,
1212,JB28,本八幡,,35.72085,139.92740,1212,,0,,,
1213,JB27,市川,,35.72887,139.90817,1213,,0,,,
1214,JB26,小岩,,35.73333,139.88185,1214,,0,,,
1215,JB25,新小岩,,35.71678,139.85765,1215,,0,,,
1216,JB24,平井,,35.70645,139.84238,1216,,0,,,
1217,JB23,亀戸,,35.69734,139.82661,1217,,0,,,
1218,JB22,錦糸町,,35.69672,139.81432,1218,,0,,,
1219,JB21,両国,,35.69576,139.79335,1219,,0,,,
1220,JB20,浅草橋,,35.69739,139.78449,1220,,0,,,
1221,JB19,秋葉原,,35.69832,139.77322,1221,,0,,,
1222,JB18,御茶ノ水,,35.69960,139.76503,1222,,0,,,
1223,JB17,水道橋,,35.70200,139.75374,1223,,0,,,
1224,JB16,飯田橋,,35.70016,139.74362,1224,,0,,,
1225,JB15,市ケ谷,,35.69116,139.73532,1225,,0,,,
1226,JB14,四ツ谷,,35.68565,139.73054,1226,,0,,,
1227,JB13,信濃町,,35.67996,139.72110,1227,,0,,,
1228,JB12,千駄ケ谷,,35.68120,139.71153,1228,,0,,,
1229,JB11,代々木,,35.68380,139.70221,1229,,0,,,
1230,JB10,新宿,,35.69019,139.70062,1230,,0,,,
1231,JB09,大久保,,35.70064,139.69744,1231,,0,,,
1232,JB08,東中野,,35.70625,139.68508,1232,,0,,,
1233,JB07,中野,,35.70580,139.66572,1233,,0,,,
1234,JB06,高円寺,,35.70532,139.64970,1234,,0,,,
1235,JB05,阿佐ケ谷,,35.70488,139.63586,1235,,0,,,
1236,JB04,荻窪,,35.70443,139.62024,1236,,0,,,
1237,JB03,西荻窪,,35.70378,139.59945,1237,,0,,,
1238,JB02,吉祥寺,,35.70314,139.57981,1238,,0,,,
1239,JB01,三鷹,,35.70270,139.56064,1239,,0,,,
1301,,八王子,,35.65550,139.33882,1301,,0,,,
1302,,北八王子,,35.66928,139.36340,1302,,0,,,
1303,,小宮,,35.68591,139.36843,1303,,0,,,
1304,,拝島,,35.72134,139.34373,1304,,0,,,
1305,,東福生,,35.74583,139.33590,1305,,0,,,
1306,,箱根ケ崎,,35.77170,139.34674,1306,,0,,,
1307,,金子,,35.81082,139.32861,1307,,0,,,
1308,,東飯能,,35.85302,139.32613,1308,,0,,,
1309,,高麗川,,35.89637,139.33813,1309,,0,,,
1310,,毛呂,,35.94074,139.30934,1310,,0,,,
1311,,越生,,35.96286,139.29925,1311,,0,,,
1312,,明覚,,36.00356,139.28922,1312,,0,,,
1313,,小川町,,36.05900,139.26069,1313,,0,,,
1314,,竹沢,,36.07550,139.22995,1314,,0,,,
1315,,折原,,36.09618,139.19532,1315,,0,,,
1316,,寄居,,36.11786,139.19352,1316,,0,,,
1317,,用土,,36.15385,139.20064,1317,,0,,,
1318,,松久,,36.17306,139.18210,1318,,0,,,
1319,,児玉,,36.19284,139.13572,1319,,0,,,
1320,,丹荘,,36.21646,139.10258,1320,,0,,,
1321,,群馬藤岡,,36.25032,139.08346,1321,,0,,,
1322,,北藤岡,,36.28212,139.08145,1322,,0,,,
1323,,倉賀野,,36.30030,139.04944,1323,,0,,,
1324,,高崎,,36.32227,139.01234,1324,,0,,,
1401,,熱海,,35.10356,139.07783,1401,,0,,,
1402,,来宮,,35.09872,139.06557,1402,,0,,,
1403,,伊豆多賀,,35.05944,139.06690,1403,,0,,,
1404,,網代,,35.04346,139.08100,1404,,0,,,
1405,,宇佐美,,35.00564,139.07978,1405,,0,,,
1406,,伊東,,34.97484,139.09210,1406,,0,,,
1501,JC55,拝島,,35.72120,139.34347,1501,,0,,,
1502,JC81,熊川,,35.72829,139.33573,1502,,0,,,
1503,JC82,東秋留,,35.72594,139.31168,1503,,0,,,
1504,JC83,秋川,,35.72805,139.28675,1504,,0,,,
1505,JC84,武蔵引田,,35.72969,139.27008,1505,,0,,,
1506,JC85,武蔵増戸,,35.73096,139.25630,1506,,0,,,
1507,JC86,武蔵五日市,,35.73214,139.22812,1507,,0,,,
1601,,取手,,35.89534,140.06285,1601,,0,,,
1602,,藤代,,35.92056,140.11815,1602,,0,,,
1603,,龍ケ崎市,,35.92994,140.13792,1603,,0,,,
1604,,牛久,,35.97518,140.14103,1604,,0,,,
1605,,ひたち野うしく,,36.00750,140.15830,1605,,0,,,
1606,,荒川沖,,36.03060,140.16598,1606,,0,,,
1607,,土浦,,36.07860,140.20624,1607,,0,,,
1608,,神立,,36.12043,140.24861,1608,,0,,,
1609,,高浜,,36.16350,140.29448,1609,,0,,,
1610,,石岡,,36.19150,140.27976,1610,,0,,,
1611,,羽鳥,,36.24754,140.28678,1611,,0,,,
1612,,岩間,,36.29542,140.27652,1612,,0,,,
1613,,友部,,36.35046,140.30602,1613,,0,,,
1614,,内原,,36.37004,140.35263,1614,,0,,,
1615,,赤塚,,36.38176,140.41516,1615,,0,,,
1616,,偕楽園,,36.37303,140.45634,1616,,0,,,
1617,,水戸,,36.37086,140.47721,1617,,0,,,
1618,,勝田,,36.39408,140.52422,1618,,0,,,
1619,,佐和,,36.43047,140.54051,1619,,0,,,
1620,,東海,,36.46550,140.56604,1620,,0,,,
1621,,大甕,,36.51292,140.61944,1621,,0,,,
1622,,常陸多賀,,36.55212,140.63272,1622,,0,,,
1623,,日立,,36.59032,140.66180,1623,,0,,,
1624,,小木津,,36.63664,140.67530,1624,,0,,,
1625,,十王,,36.67138,140.68594,1625,,0,,,
1626,,高萩,,36.71434,140.71696,1626,,0,,,
1627,,南中郷,,36.75332,140.72906,1627,,0,,,
1628,,磯原,,36.79070,140.74634,1628,,0,,,
1629,,大津港,,36.84606,140.77800,1629,,0,,,
1630,,勿来,,36.88363,140.78663,1630,,0,,,
1631,,植田,,36.92049,140.79648,1631,,0,,,
1632,,泉,,36.95558,140.85408,1632,,0,,,
1633,,湯本,,37.00694,140.84984,1633,,0,,,
1634,,内郷,,37.03599,140.85494,1634,,0,,,
1635,,いわき,,37.05822,140.89236,1635,,0,,,
1636,,草野,,37.07385,140.94725,1636,,0,,,
1637,,四ツ倉,,37.10232,140.98086,1637,,0,,,
1638,,久ノ浜,,37.14247,140.99578,1638,,0,,,
1639,,末続,,37.17214,140.99565,1639,,0,,,
1640,,広野,,37.21155,140.99881,1640,,0,,,
1641,,Ｊヴィレッジ,,37.24176,141.00757,1641,,0,,,
1642,,木戸,,37.25799,141.00253,1642,,0,,,
1643,,竜田,,37.28245,141.00274,1643,,0,,,
1644,,富岡,,37.33405,141.02274,1644,,0,,,
1645,,夜ノ森,,37.36578,140.99202,1645,,0,,,
1646,,大野,,37.40932,140.98420,1646,,0,,,
1647,,双葉,,37.45374,141.00586,1647,,0,,,
1648,,浪江,,37.49222,140.98978,1648,,0,,,
1649,,桃内,,37.52866,140.98437,1649,,0,,,
1650,,小高,,37.56298,140.99636,1650,,0,,,
1651,,磐城太田,,37.60507,140.99151,1651,,0,,,
1652,,原ノ町,,37.63802,140.97105,1652,,0,,,
1653,,鹿島,,37.70284,140.97008,1653,,0,,,
1654,,日立木,,37.75613,140.93466,1654,,0,,,
1655,,相馬,,37.80250,140.92571,1655,,0,,,
1656,,駒ケ嶺,,37.84214,140.92510,1656,,0,,,
1657,,新地,,37.87922,140.92564,1657,,0,,,
1658,,坂元,,37.92408,140.90105,1658,,0,,,
1659,,山下,,37.96632,140.88898,1659,,0,,,
1660,,浜吉田,,38.00222,140.89008,1660,,0,,,
1661,,亘理,,38.03988,140.86129,1661,,0,,,
1662,,逢隈,,38.06762,140.85475,1662,,0,,,
1663,,岩沼,,38.11186,140.86366,1663,,0,,,
1664,,館腰,,38.14308,140.88016,1664,,0,,,
1665,,名取,,38.17310,140.88275,1665,,0,,,
1666,,南仙台,,38.19722,140.88330,1666,,0,,,
1667,,太子堂,,38.21774,140.88373,1667,,0,,,
1668,,長町,,38.22696,140.88616,1668,,0,,,
1669,,仙台,,38.25974,140.88250,1669,,0,,,
1701,JL19,綾瀬,,35.76216,139.82494,1701,,0,,,
1702,JL20,亀有,,35.76653,139.84756,1702,,0,,,
1703,JL21,金町,,35.76951,139.87039,1703,,0,,,
1704,JL22,松戸,,35.78462,139.90076,1704,,0,,,
1705,JL23,北松戸,,35.80036,139.91162,1705,,0,,,
1706,JL24,馬橋,,35.81168,139.91732,1706,,0,,,
1707,JL25,新松戸,,35.82541,139.92120,1707,,0,,,
1708,JL26,北小金,,35.83317,139.93075,1708,,0,,,
1709,JL27,南柏,,35.84470,139.95428,1709,,0,,,
1710,JL28,柏,,35.86210,139.97096,1710,,0,,,
1711,JL29,北柏,,35.87566,139.98804,1711,,0,,,
1712,JL30,我孫子,,35.87280,140.01042,1712,,0,,,
1713,JL31,天王台,,35.87247,140.04232,1713,,0,,,
1714,JL32,取手,,35.89534,140.06285,1714,,0,,,
1801,,品川,,35.62866,139.73919,1801,,0,,,
1802,,新橋,,35.66630,139.75846,1802,,0,,,
1803,,東京,,35.68122,139.76653,1803,,0,,,
1804,JJ01,上野,,35.71376,139.77706,1804,,0,,,
1805,JJ02,日暮里,,35.72787,139.77132,1805,,0,,,
1806,JJ03,三河島,,35.73338,139.77708,1806,,0,,,
1807,JJ04,南千住,,35.73464,139.79978,1807,,0,,,
1808,JJ05,北千住,,35.74884,139.80464,1808,,0,,,
1809,JJ06,松戸,,35.78462,139.90076,1809,,0,,,
1810,JJ07,柏,,35.86210,139.97096,1810,,0,,,
1811,JJ08,我孫子,,35.87280,140.01042,1811,,0,,,
1812,JJ09,天王台,,35.87247,140.04232,1812,,0,,,
1813,JJ10,取手,,35.89534,140.06285,1813,,0,,,
1901,,高崎,,36.32227,139.01234,1901,,0,,,
1902,,高崎問屋町,,36.34614,139.01723,1902,,0,,,
1903,,井野,,36.35744,139.02327,1903,,0,,,
1904,,新前橋,,36.37900,139.04700,1904,,0,,,
1905,,群馬総社,,36.41551,139.03228,1905,,0,,,
1906,,八木原,,36.46379,139.01925,1906,,0,,,
1907,,渋川,,36.49123,139.00879,1907,,0,,,
1908,,敷島,,36.53756,139.03394,1908,,0,,,
1909,,津久田,,36.56103,139.04286,1909,,0,,,
1910,,岩本,,36.60216,139.04753,1910,,0,,,
1911,,沼田,,36.64230,139.03564,1911,,0,,,
1912,,後閑,,36.67955,139.00012,1912,,0,,,
1913,,上牧,,36.73563,138.98456,1913,,0,,,
1914,,水上,,36.77908,138.96930,1914,,0,,,
1915,,湯檜曽,,36.80289,138.98585,1915,,0,,,
1916,,土合,,36.83036,138.96506,1916,,0,,,
1917,,土樽,,36.87528,138.86159,1917,,0,,,
1918,,越後中里,,36.91032,138.84852,1918,,0,,,
1919,,岩原スキー場前,,36.92428,138.83936,1919,,0,,,
1920,,越後湯沢,,36.93582,138.80962,1920,,0,,,
1921,,石打,,36.98892,138.80418,1921,,0,,,
1922,,大沢,,37.02123,138.82133,1922,,0,,,
1923,,上越国際スキー場前,,37.02875,138.82801,1923,,0,,,
1924,,塩沢,,37.04148,138.84843,1924,,0,,,
1925,,六日町,,37.06668,138.87566,1925,,0,,,
1926,,五日町,,37.11994,138.90844,1926,,0,,,
1927,,浦佐,,37.16737,138.92304,1927,,0,,,
1928,,八色,,37.19176,138.93511,1928,,0,,,
1929,,小出,,37.23357,138.95361,1929,,0,,,
1930,,越後堀之内,,37.23896,138.92828,1930,,0,,,
1931,,北堀之内,,37.25574,138.89632,1931,,0,,,
1932,,越後川口,,37.27286,138.86156,1932,,0,,,
1933,,小千谷,,37.30968,138.81348,1933,,0,,,
1934,,越後滝谷,,37.36864,138.83498,1934,,0,,,
1935,,宮内,,37.42214,138.84012,1935,,0,,,
1936,,長岡,,37.44776,138.85398,1936,,0,,,
2001,,佐原,,35.89493,140.49377,2001,,0,,,
2002,,香取,,35.89788,140.53241,2002,,0,,,
2003,,十二橋,,35.91702,140.54583,2003,,0,,,
2004,,潮来,,35.93746,140.54969,2004,,0,,,
2005,,延方,,35.95810,140.58880,2005,,0,,,
2006,,鹿島神宮,,35.97070,140.62593,2006,,0,,,
2007,,鹿島サッカースタジアム,,35.99306,140.63591,2007,,0,,,
2101,,川越,,35.90668,139.48320,2101,,0,,,
2102,,西川越,,35.91910,139.45994,2102,,0,,,
2103,,的場,,35.91754,139.43541,2103,,0,,,
2104,,笠幡,,35.90758,139.40626,2104,,0,,,
2105,,武蔵高萩,,35.90168,139.37112,2105,,0,,,
2106,,高麗川,,35.89637,139.33813,2106,,0,,,
2201,JK47,大宮,,35.90626,139.62396,2201,,0,,,
2202,JK46,さいたま新都心,,35.89360,139.63390,2202,,0,,,
2203,JK45,与野,,35.88438,139.63899,2203,,0,,,
2204,JK44,北浦和,,35.87220,139.64575,2204,,0,,,
2205,JK43,浦和,,35.85856,139.65714,2205,,0,,,
2206,JK42,南浦和,,35.84834,139.66862,2206,,0,,,
2207,JK41,蕨,,35.82793,139.69042,2207,,0,,,
2208,JK40,西川口,,35.81552,139.70436,2208,,0,,,
2209,JK39,川口,,35.80180,139.71746,2209,,0,,,
2210,JK38,赤羽,,35.77765,139.72099,2210,,0,,,
2211,JK37,東十条,,35.76386,139.72676,2211,,0,,,
2212,JK36,王子,,35.75232,139.73821,2212,,0,,,
2213,JK35,上中里,,35.74709,139.74593,2213,,0,,,
2214,JK34,田端,,35.73748,139.76158,2214,,0,,,
2215,JK33,西日暮里,,35.73208,139.76678,2215,,0,,,
2216,JK32,日暮里,,35.72760,139.77117,2216,,0,,,
2217,JK31,鶯谷,,35.72146,139.77803,2217,,0,,,
2218,JK30,上野,,35.71376,139.77706,2218,,0,,,
2219,JK29,御徒町,,35.70720,139.77472,2219,,0,,,
2220,JK28,秋葉原,,35.69854,139.77304,2220,,0,,,
2221,JK27,神田,,35.69177,139.77088,2221,,0,,,
2222,JK26,東京,,35.68122,139.76653,2222,,0,,,
2223,JK25,有楽町,,35.67504,139.76326,2223,,0,,,
2224,JK24,新橋,,35.66630,139.75846,2224,,0,,,
2225,JK23,浜松町,,35.65541,139.75712,2225,,0,,,
2226,JK22,田町,,35.64574,139.74760,2226,,0,,,
2227,JK21,高輪ゲートウェイ,,35.63538,139.74064,2227,,0,,,
2228,JK20,品川,,35.62866,139.73919,2228,,0,,,
2229,JK19,大井町,,35.60681,139.73499,2229,,0,,,
2230,JK18,大森,,35.58892,139.72815,2230,,0,,,
2231,JK17,蒲田,,35.56248,139.71603,2231,,0,,,
2232,JK16,川崎,,35.53136,139.69681,2232,,0,,,
2233,JK15,鶴見,,35.50849,139.67624,2233,,0,,,
2234,JK14,新子安,,35.48682,139.65402,2234,,0,,,
2235,JK13,東神奈川,,35.47788,139.63316,2235,,0,,,
2236,JK12,横浜,,35.46574,139.62252,2236,,0,,,
2237,JK11,桜木町,,35.45110,139.63088,2237,,0,,,
2238,JK10,関内,,35.44419,139.63606,2238,,0,,,
2239,JK09,石川町,,35.43874,139.64300,2239,,0,,,
2240,JK08,山手,,35.42680,139.64647,2240,,0,,,
2241,JK07,根岸,,35.41586,139.63610,2241,,0,,,
2242,JK06,磯子,,35.40058,139.61847,2242,,0,,,
2243,JK05,新杉田,,35.38680,139.61944,2243,,0,,,
2244,JK04,洋光台,,35.37878,139.59684,2244,,0,,,
2245,JK03,港南台,,35.37516,139.57624,2245,,0,,,
2246,JK02,本郷台,,35.36786,139.55012,2246,,0,,,
2247,JK01,大船,,35.35410,139.53151,2247,,0,,,
2301,JE01,東京,,35.67768,139.76524,2301,,0,,,
2302,JE02,八丁堀,,35.67462,139.77799,2302,,0,,,
2303,JE03,越中島,,35.66800,139.79250,2303,,0,,,
2304,JE04,潮見,,35.65886,139.81717,2304,,0,,,
2305,JE05,新木場,,35.64600,139.82684,2305,,0,,,
2306,JE06,葛西臨海公園,,35.64417,139.86148,2306,,0,,,
2307,JE07,舞浜,,35.63616,139.88372,2307,,0,,,
2308,JE08,新浦安,,35.64952,139.91253,2308,,0,,,
2309,JE09,市川塩浜,,35.66648,139.92365,2309,,0,,,
2310,,西船橋,,35.70722,139.95952,2310,,0,,,
2311,JE10,二俣新町,,35.69132,139.95956,2311,,0,,,
2312,JE11,南船橋,,35.68166,139.99570,2312,,0,,,
2313,JE12,新習志野,,35.66740,140.01298,2313,,0,,,
2314,JE13,幕張豊砂,,35.65816,140.02707,2314,,0,,,
2315,JE14,海浜幕張,,35.64840,140.04200,2315,,0,,,
2316,JE15,検見川浜,,35.63717,140.05908,2316,,0,,,
2317,JE16,稲毛海岸,,35.62952,140.07385,2317,,0,,,
2318,JE17,千葉みなと,,35.60671,140.10280,2318,,0,,,
2319,,蘇我,,35.58216,140.13074,2319,,0,,,
2401,,木更津,,35.38162,139.92613,2401,,0,,,
2402,,祇園,,35.39162,139.94838,2402,,0,,,
2403,,上総清川,,35.39084,139.96564,2403,,0,,,
2404,,東清川,,35.39000,139.98590,2404,,0,,,
2405,,横田,,35.38620,140.02013,2405,,0,,,
2406,,東横田,,35.38616,140.03594,2406,,0,,,
2407,,馬来田,,35.36682,140.05852,2407,,0,,,
2408,,下郡,,35.35499,140.05541,2408,,0,,,
2409,,小櫃,,35.32824,140.05978,2409,,0,,,
2410,,俵田,,35.31462,140.06142,2410,,0,,,
2411,,久留里,,35.29580,140.07560,2411,,0,,,
2412,,平山,,35.27430,140.06466,2412,,0,,,
2413,,上総松丘,,35.25820,140.06403,2413,,0,,,
2414,,上総亀山,,35.23318,140.08950,2414,,0,,,
2501,JM35,府中本町,,35.66584,139.47710,2501,,0,,,
2502,JM34,北府中,,35.68086,139.47180,2502,,0,,,
2503,JM33,西国分寺,,35.69991,139.46598,2503,,0,,,
2504,JM32,新小平,,35.73092,139.47050,2504,,0,,,
2505,JM31,新秋津,,35.77831,139.49376,2505,,0,,,
2506,JM30,東所沢,,35.79489,139.51454,2506,,0,,,
2507,JM29,新座,,35.80378,139.55629,2507,,0,,,
2508,JM28,北朝霞,,35.81547,139.58723,2508,,0,,,
2509,JM27,西浦和,,35.84418,139.62776,2509,,0,,,
2510,JM26,武蔵浦和,,35.84604,139.64794,2510,,0,,,
2511,JM25,南浦和,,35.84758,139.66894,2511,,0,,,
2512,JM24,東浦和,,35.86404,139.70447,2512,,0,,,
2513,JM23,東川口,,35.87516,139.74403,2513,,0,,,
2514,JM22,南越谷,,35.87604,139.79115,2514,,0,,,
2515,JM21,越谷レイクタウン,,35.87610,139.82226,2515,,0,,,
2516,JM20,吉川,,35.87662,139.84324,2516,,0,,,
2517,JM19,吉川美南,,35.86809,139.85812,2517,,0,,,
2518,JM18,新三郷,,35.85839,139.86954,2518,,0,,,
2519,JM17,三郷,,35.84484,139.88684,2519,,0,,,
2520,JM16,南流山,,35.83784,139.90423,2520,,0,,,
2521,JM15,新松戸,,35.82556,139.92098,2521,,0,,,
2522,JM14,新八柱,,35.79129,139.93856,2522,,0,,,
2523,JM13,東松戸,,35.77049,139.94386,2523,,0,,,
2524,JM12,市川大野,,35.75540,139.95128,2524,,0,,,
2525,JM11,船橋法典,,35.73046,139.96671,2525,,0,,,
2526,JM10,西船橋,,35.70722,139.95952,2526,,0,,,
2601,JN01,川崎,,35.53136,139.69681,2601,,0,,,
2602,JN54,浜川崎,,35.51038,139.71378,2602,,0,,,
2603,JN53,小田栄,,35.51442,139.70508,2603,,0,,,
2604,JN52,川崎新町,,35.51832,139.69926,2604,,0,,,
2605,JN51,八丁畷,,35.52307,139.69138,2605,,0,,,
2606,JN02,尻手,,35.53098,139.68430,2606,,0,,,
2607,JN03,矢向,,35.53936,139.68042,2607,,0,,,
2608,JN04,鹿島田,,35.55146,139.67498,2608,,0,,,
2609,JN05,平間,,35.56056,139.67110,2609,,0,,,
2610,JN06,向河原,,35.57218,139.66730,2610,,0,,,
2611,JN07,武蔵小杉,,35.57656,139.65970,2611,,0,,,
2612,JN08,武蔵中原,,35.58056,139.64214,2612,,0,,,
2613,JN09,武蔵新城,,35.58742,139.62909,2613,,0,,,
2614,JN10,武蔵溝ノ口,,35.59882,139.61138,2614,,0,,,
2615,JN11,津田山,,35.60365,139.60072,2615,,0,,,
2616,JN12,久地,,35.61010,139.59308,2616,,0,,,
2617,JN13,宿河原,,35.61542,139.57954,2617,,0,,,
2618,JN14,登戸,,35.62068,139.57026,2618,,0,,,
2619,JN15,中野島,,35.63002,139.55108,2619,,0,,,
2620,JN16,稲田堤,,35.63341,139.53594,2620,,0,,,
2621,JN17,矢野口,,35.64174,139.52044,2621,,0,,,
2622,JN18,稲城長沼,,35.64428,139.50261,2622,,0,,,
2623,JN19,南多摩,,35.64922,139.48954,2623,,0,,,
2624,JN20,府中本町,,35.66586,139.47723,2624,,0,,,
2625,JN21,分倍河原,,35.66842,139.46892,2625,,0,,,
2626,JN22,西府,,35.67094,139.45739,2626,,0,,,
2627,JN23,谷保,,35.68138,139.44678,2627,,0,,,
2628,JN24,矢川,,35.68508,139.43159,2628,,0,,,
2629,JN25,西国立,,35.69379,139.42390,2629,,0,,,
2630,JN26,立川,,35.69754,139.41430,2630,,0,,,
2701,JO33,佐倉,,35.70974,140.22678,2701,,0,,,
2702,JO34,酒々井,,35.73185,140.27540,2702,,0,,,
2703,,我孫子,,35.87280,140.01042,2703,,0,,,
2704,,東我孫子,,35.86898,140.04760,2704,,0,,,
2705,,湖北,,35.86720,140.07794,2705,,0,,,
2706,,新木,,35.86240,140.10705,2706,,0,,,
2707,,布佐,,35.84935,140.13298,2707,,0,,,
2708,,木下,,35.83888,140.14799,2708,,0,,,
2709,,小林,,35.83074,140.19310,2709,,0,,,
2710,,安食,,35.83572,140.24228,2710,,0,,,
2711,,下総松崎,,35.80778,140.27755,2711,,0,,,
2712,JO35,成田,,35.77726,140.31354,2712,,0,,,
2713,JO36,空港第２ビル,,35.77296,140.38761,2713,,0,,,
2714,JO37,成田空港,,35.76572,140.38630,2714,,0,,,
2716,,久住,,35.83218,140.33887,2716,,0,,,
2717,,滑河,,35.87706,140.34786,2717,,0,,,
2718,,下総神崎,,35.89484,140.41067,2718,,0,,,
2719,,大戸,,35.88993,140.45773,2719,,0,,,
2720,,佐原,,35.89493,140.49377,2720,,0,,,
2721,,香取,,35.89788,140.53241,2721,,0,,,
2722,,水郷,,35.88546,140.57018,2722,,0,,,
2723,,小見川,,35.84998,140.60460,2723,,0,,,
2724,,笹川,,35.83943,140.65582,2724,,0,,,
2725,,下総橘,,35.81878,140.70215,2725,,0,,,
2726,,下総豊里,,35.79300,140.72090,2726,,0,,,
2727,,椎柴,,35.76518,140.75890,2727,,0,,,
2728,,松岸,,35.73938,140.79520,2728,,0,,,
2729,,銚子,,35.72932,140.82746,2729,,0,,,
2801,JC19,立川,,35.69815,139.41396,2801,,0,,,
2802,JC51,西立川,,35.70362,139.39316,2802,,0,,,
2803,JC52,東中神,,35.70628,139.38460,2803,,0,,,
2804,JC53,中神,,35.70900,139.37571,2804,,0,,,
2805,JC54,昭島,,35.71322,139.36164,2805,,0,,,
2806,JC55,拝島,,35.72120,139.34347,2806,,0,,,
2807,JC56,牛浜,,35.73434,139.33379,2807,,0,,,
2808,JC57,福生,,35.74248,139.32774,2808,,0,,,
2809,JC58,羽村,,35.75794,139.31630,2809,,0,,,
2810,JC59,小作,,35.77606,139.30228,2810,,0,,,
2811,JC60,河辺,,35.78478,139.28406,2811,,0,,,
2812,JC61,東青梅,,35.78982,139.27280,2812,,0,,,
2813,JC62,青梅,,35.79054,139.25812,2813,,0,,,
2814,JC63,宮ノ平,,35.78759,139.23732,2814,,0,,,
2815,JC64,日向和田,,35.78864,139.22954,2815,,0,,,
2816,JC65,石神前,,35.79683,139.22514,2816,,0,,,
2817,JC66,二俣尾,,35.80394,139.21614,2817,,0,,,
2818,JC67,軍畑,,35.80758,139.20765,2818,,0,,,
2819,JC68,沢井,,35.80595,139.19340,2819,,0,,,
2820,JC69,御嶽,,35.80142,139.18263,2820,,0,,,
2821,JC70,川井,,35.81376,139.16422,2821,,0,,,
2822,JC71,古里,,35.81632,139.15114,2822,,0,,,
2823,JC72,鳩ノ巣,,35.81510,139.12894,2823,,0,,,
2824,JC73,白丸,,35.81172,139.11483,2824,,0,,,
2825,JC74,奥多摩,,35.80942,139.09694,2825,,0,,,
2901,,茅ケ崎,,35.33068,139.40702,2901,,0,,,
2902,,北茅ケ崎,,35.33968,139.40747,2902,,0,,,
2903,,香川,,35.35660,139.39983,2903,,0,,,
2904,,寒川,,35.36770,139.38732,2904,,0,,,
2905,,宮山,,35.38222,139.37966,2905,,0,,,
2906,,倉見,,35.39506,139.37838,2906,,0,,,
2907,,門沢橋,,35.40670,139.38006,2907,,0,,,
2908,,社家,,35.42041,139.37718,2908,,0,,,
2909,,厚木,,35.44382,139.37860,2909,,0,,,
2910,,海老名,,35.45423,139.38930,2910,,0,,,
2911,,入谷,,35.47838,139.39187,2911,,0,,,
2912,,相武台下,,35.49278,139.38632,2912,,0,,,
2913,,下溝,,35.51832,139.38051,2913,,0,,,
2914,,原当麻,,35.52900,139.37536,2914,,0,,,
2915,,番田,,35.54536,139.36313,2915,,0,,,
2916,,上溝,,35.55764,139.36314,2916,,0,,,
2917,,南橋本,,35.58040,139.35242,2917,,0,,,
2918,,橋本,,35.59484,139.34510,2918,,0,,,
3001,JA08,大崎,,35.61994,139.72824,3001,,0,,,
3002,JA09,恵比寿,,35.64668,139.71012,3002,,0,,,
3003,JA10,渋谷,,35.65815,139.70175,3003,,0,,,
3004,JA11,新宿,,35.68950,139.70090,3004,,0,,,
3005,JA12,池袋,,35.73020,139.71134,3005,,0,,,
3006,JA13,板橋,,35.74499,139.71918,3006,,0,,,
3007,JA14,十条,,35.76039,139.72225,3007,,0,,,
3008,JA15,赤羽,,35.77771,139.72082,3008,,0,,,
3009,JA16,北赤羽,,35.78703,139.70580,3009,,0,,,
3010,JA17,浮間舟渡,,35.79134,139.69141,3010,,0,,,
3011,JA18,戸田公園,,35.80776,139.67835,3011,,0,,,
3012,JA19,戸田,,35.81760,139.66961,3012,,0,,,
3013,JA20,北戸田,,35.82676,139.66144,3013,,0,,,
3014,JA21,武蔵浦和,,35.84540,139.64684,3014,,0,,,
3015,JA22,中浦和,,35.85382,139.63740,3015,,0,,,
3016,JA23,南与野,,35.86736,139.63106,3016,,0,,,
3017,JA24,与野本町,,35.88092,139.62600,3017,,0,,,
3018,JA25,北与野,,35.89070,139.62848,3018,,0,,,
3019,JA26,大宮,,35.90626,139.62396,3019,,0,,,
3020,,日進,,35.93153,139.60606,3020,,0,,,
3021,,西大宮,,35.92196,139.57890,3021,,0,,,
3022,,指扇,,35.91696,139.56497,3022,,0,,,
3023,,南古谷,,35.90318,139.51916,3023,,0,,,
3024,,川越,,35.90668,139.48320,3024,,0,,,
3101,JS09,大船,,35.35416,139.53116,3101,,0,,,
3102,JS10,戸塚,,35.40044,139.53431,3102,,0,,,
3103,JS11,東戸塚,,35.42996,139.55650,3103,,0,,,
3104,JS12,保土ケ谷,,35.44722,139.60037,3104,,0,,,
3105,JS13,横浜,,35.46579,139.62240,3105,,0,,,
3106,JS14,新川崎,,35.55172,139.67153,3106,,0,,,
3107,JS15,武蔵小杉,,35.57468,139.66350,3107,,0,,,
3108,JS16,西大井,,35.60170,139.72160,3108,,0,,,
3109,JS17,大崎,,35.61994,139.72824,3109,,0,,,
3110,JS18,恵比寿,,35.64668,139.71012,3110,,0,,,
3111,JS19,渋谷,,35.65815,139.70175,3111,,0,,,
3112,JS20,新宿,,35.68950,139.70090,3112,,0,,,
3113,JS21,池袋,,35.73028,139.71108,3113,,0,,,
3114,JS22,赤羽,,35.77765,139.72099,3114,,0,,,
3115,JS23,浦和,,35.85856,139.65714,3115,,0,,,
3116,JS24,大宮,,35.90626,139.62396,3116,,0,,,
3201,JO28,千葉,,35.61360,140.11355,3201,,0,,,
3202,JO29,東千葉,,35.61712,140.12242,3202,,0,,,
3203,JO30,都賀,,35.63602,140.14918,3203,,0,,,
3204,JO31,四街道,,35.66279,140.16490,3204,,0,,,
3205,JO32,物井,,35.68572,140.20032,3205,,0,,,
3206,JO33,佐倉,,35.70974,140.22678,3206,,0,,,
3207,,南酒々井,,35.70430,140.26794,3207,,0,,,
3208,,榎戸,,35.68408,140.28812,3208,,0,,,
3209,,八街,,35.66318,140.31742,3209,,0,,,
3210,,日向,,35.62830,140.36243,3210,,0,,,
3211,,成東,,35.60854,140.41028,3211,,0,,,
3212,,松尾,,35.63636,140.45808,3212,,0,,,
3213,,横芝,,35.66178,140.49078,3213,,0,,,
3214,,飯倉,,35.68509,140.52142,3214,,0,,,
3215,,八日市場,,35.69930,140.55240,3215,,0,,,
3216,,干潟,,35.71834,140.60331,3216,,0,,,
3217,,旭,,35.72184,140.65469,3217,,0,,,
3218,,飯岡,,35.72938,140.68335,3218,,0,,,
3219,,倉橋,,35.73776,140.71399,3219,,0,,,
3220,,猿田,,35.74735,140.73736,3220,,0,,,
3221,,松岸,,35.73938,140.79520,3221,,0,,,
3222,,銚子,,35.72932,140.82746,3222,,0,,,
3301,JO19,東京,,35.68172,139.76541,3301,,0,,,
3302,JO20,新日本橋,,35.68904,139.77430,3302,,0,,,
3303,JO21,馬喰町,,35.69337,139.78244,3303,,0,,,
3304,JO22,錦糸町,,35.69672,139.81432,3304,,0,,,
3305,JO23,新小岩,,35.71678,139.85765,3305,,0,,,
3306,JO24,市川,,35.72887,139.90817,3306,,0,,,
3307,JO25,船橋,,35.70174,139.98468,3307,,0,,,
3308,JO26,津田沼,,35.69137,140.02022,3308,,0,,,
3309,JO27,稲毛,,35.63731,140.09256,3309,,0,,,
3310,JO28,千葉,,35.61360,140.11355,3310,,0,,,
3401,JS17,大崎,,35.61994,139.72824,3401,,0,,,
3402,JS16,西大井,,35.60170,139.72160,3402,,0,,,
3403,JS15,武蔵小杉,,35.57468,139.66350,3403,,0,,,
3404,,羽沢横浜国大,,35.48123,139.58613,3404,,0,,,
3501,,千葉,,35.61315,140.11308,3501,,0,,,
3502,,本千葉,,35.60062,140.12143,3502,,0,,,
3503,,蘇我,,35.58216,140.13074,3503,,0,,,
3504,,鎌取,,35.56266,140.17875,3504,,0,,,
3505,,誉田,,35.54700,140.21378,3505,,0,,,
3506,,土気,,35.53092,140.26977,3506,,0,,,
3507,,大網,,35.52230,140.31101,3507,,0,,,
3508,,永田,,35.50324,140.31127,3508,,0,,,
3509,,本納,,35.48216,140.30757,3509,,0,,,
3510,,新茂原,,35.44943,140.29972,3510,,0,,,
3511,,茂原,,35.42683,140.30407,3511,,0,,,
3512,,八積,,35.40396,140.34536,3512,,0,,,
3513,,上総一ノ宮,,35.37468,140.36552,3513,,0,,,
3514,,東浪見,,35.34677,140.37665,3514,,0,,,
3515,,太東,,35.32010,140.38129,3515,,0,,,
3516,,長者町,,35.29626,140.38481,3516,,0,,,
3517,,三門,,35.28292,140.39144,3517,,0,,,
3518,,大原,,35.25101,140.39102,3518,,0,,,
3519,,浪花,,35.22264,140.37914,3519,,0,,,
3520,,御宿,,35.18754,140.35144,3520,,0,,,
3521,,勝浦,,35.15262,140.31197,3521,,0,,,
3522,,鵜原,,35.14125,140.27896,3522,,0,,,
3523,,上総興津,,35.13722,140.25047,3523,,0,,,
3524,,行川アイランド,,35.11826,140.22571,3524,,0,,,
3525,,安房小湊,,35.12864,140.18977,3525,,0,,,
3526,,安房天津,,35.12579,140.15474,3526,,0,,,
3527,,安房鴨川,,35.10762,140.10371,3527,,0,,,
3601,JU01,東京,,35.68116,139.76713,3601,,0,,,
3602,JU02,上野,,35.71376,139.77706,3602,,0,,,
3603,JU03,尾久,,35.74680,139.75387,3603,,0,,,
3604,JU04,赤羽,,35.77765,139.72099,3604,,0,,,
3605,JU05,浦和,,35.85856,139.65714,3605,,0,,,
3606,JU06,さいたま新都心,,35.89360,139.63390,3606,,0,,,
3607,JU07,大宮,,35.90644,139.62437,3607,,0,,,
3608,,宮原,,35.94053,139.60952,3608,,0,,,
3609,,上尾,,35.97302,139.58881,3609,,0,,,
3610,,北上尾,,35.98515,139.57758,3610,,0,,,
3611,,桶川,,35.99844,139.56422,3611,,0,,,
3612,,北本,,36.03218,139.53354,3612,,0,,,
3613,,鴻巣,,36.05924,139.50958,3613,,0,,,
3614,,北鴻巣,,36.08550,139.47696,3614,,0,,,
3615,,吹上,,36.10289,139.45360,3615,,0,,,
3616,,行田,,36.11390,139.43208,3616,,0,,,
3617,,熊谷,,36.13981,139.38992,3617,,0,,,
3618,,籠原,,36.17442,139.33026,3618,,0,,,
3619,,深谷,,36.19134,139.28134,3619,,0,,,
3620,,岡部,,36.20574,139.23749,3620,,0,,,
3621,,本庄,,36.23630,139.18814,3621,,0,,,
3622,,神保原,,36.25362,139.14902,3622,,0,,,
3623,,新町,,36.27310,139.10532,3623,,0,,,
3624,,倉賀野,,36.30030,139.04944,3624,,0,,,
3625,,高崎,,36.32227,139.01234,3625,,0,,,
3701,,大網,,35.52302,140.31143,3701,,0,,,
3702,,福俵,,35.54616,140.34188,3702,,0,,,
3703,,東金,,35.56010,140.36360,3703,,0,,,
3704,,求名,,35.57984,140.39618,3704,,0,,,
3705,,成東,,35.60854,140.41028,3705,,0,,,
3801,JT01,東京,,35.68122,139.76653,3801,,0,,,
3802,JT02,新橋,,35.66630,139.75846,3802,,0,,,
3803,JT03,品川,,35.62866,139.73919,3803,,0,,,
3804,JT04,川崎,,35.53136,139.69681,3804,,0,,,
3805,JT05,横浜,,35.46579,139.62240,3805,,0,,,
3806,JT06,戸塚,,35.40044,139.53431,3806,,0,,,
3807,JT07,大船,,35.35416,139.53116,3807,,0,,,
3808,JT08,藤沢,,35.33883,139.48642,3808,,0,,,
3809,JT09,辻堂,,35.33684,139.44590,3809,,0,,,
3810,JT10,茅ケ崎,,35.33064,139.40800,3810,,0,,,
3811,JT11,平塚,,35.32755,139.34900,3811,,0,,,
3812,JT12,大磯,,35.31146,139.31328,3812,,0,,,
3813,JT13,二宮,,35.29867,139.25675,3813,,0,,,
3814,JT14,国府津,,35.28140,139.21496,3814,,0,,,
3815,JT15,鴨宮,,35.27573,139.18016,3815,,0,,,
3816,JT16,小田原,,35.25610,139.15577,3816,,0,,,
3817,JT17,早川,,35.23872,139.14500,3817,,0,,,
3818,JT18,根府川,,35.20258,139.13863,3818,,0,,,
3819,JT19,真鶴,,35.15692,139.13225,3819,,0,,,
3820,JT20,湯河原,,35.14612,139.10220,3820,,0,,,
3821,JT21,熱海,,35.10372,139.07788,3821,,0,,,
3901,JI01,鶴見,,35.50794,139.67579,3901,,0,,,
3902,JI02,国道,,35.50077,139.67571,3902,,0,,,
3903,JI03,鶴見小野,,35.49702,139.68128,3903,,0,,,
3904,JI04,弁天橋,,35.49580,139.68948,3904,,0,,,
3905,JI05,浅野,,35.49744,139.69571,3905,,0,,,
3906,JI51,新芝浦,,35.49192,139.70012,3906,,0,,,
3907,JI52,海芝浦,,35.48613,139.70068,3907,,0,,,
3908,JI06,安善,,35.49984,139.70124,3908,,0,,,
3909,JI61,大川,,35.49540,139.71138,3909,,0,,,
3910,JI07,武蔵白石,,35.50193,139.70653,3910,,0,,,
3911,JI08,浜川崎,,35.50966,139.71354,3911,,0,,,
3912,JI09,昭和,,35.50685,139.72392,3912,,0,,,
3913,JI10,扇町,,35.50174,139.72242,3913,,0,,,
4001,,千葉,,35.61315,140.11308,4001,,0,,,
4002,,本千葉,,35.60062,140.12143,4002,,0,,,
4003,,蘇我,,35.58216,140.13074,4003,,0,,,
4004,,浜野,,35.55210,140.13218,4004,,0,,,
4005,,八幡宿,,35.53616,140.12004,4005,,0,,,
4006,,五井,,35.51312,140.08974,4006,,0,,,
4007,,姉ケ崎,,35.47863,140.04190,4007,,0,,,
4008,,長浦,,35.45028,139.99542,4008,,0,,,
4009,,袖ケ浦,,35.43190,139.95721,4009,,0,,,
4010,,巌根,,35.41478,139.93380,4010,,0,,,
4011,,木更津,,35.38162,139.92613,4011,,0,,,
4012,,君津,,35.33359,139.89572,4012,,0,,,
4013,,青堀,,35.33056,139.85888,4013,,0,,,
4014,,大貫,,35.29162,139.85562,4014,,0,,,
4015,,佐貫町,,35.25998,139.87614,4015,,0,,,
4016,,上総湊,,35.22183,139.87100,4016,,0,,,
4017,,竹岡,,35.19759,139.83003,4017,,0,,,
4018,,浜金谷,,35.16820,139.82226,4018,,0,,,
4019,,保田,,35.14146,139.83816,4019,,0,,,
4020,,安房勝山,,35.11406,139.83341,4020,,0,,,
4021,,岩井,,35.09305,139.84987,4021,,0,,,
4022,,富浦,,35.04623,139.83776,4022,,0,,,
4023,,那古船形,,35.02904,139.85140,4023,,0,,,
4024,,館山,,34.99592,139.86199,4024,,0,,,
4025,,九重,,34.99752,139.91140,4025,,0,,,
4026,,千倉,,34.97686,139.95452,4026,,0,,,
4027,,千歳,,34.99135,139.96628,4027,,0,,,
4028,,南三原,,35.02120,139.97907,4028,,0,,,
4029,,和田浦,,35.04171,140.01961,4029,,0,,,
4030,,江見,,35.06250,140.06114,4030,,0,,,
4031,,太海,,35.08148,140.09623,4031,,0,,,
4032,,安房鴨川,,35.10762,140.10371,4032,,0,,,
4101,JU01,東京,,35.68116,139.76713,4101,,0,,,
4102,JU02,上野,,35.71376,139.77706,4102,,0,,,
4103,JU03,尾久,,35.74680,139.75387,4103,,0,,,
4104,JU04,赤羽,,35.77765,139.72099,4104,,0,,,
4105,JU05,浦和,,35.85856,139.65714,4105,,0,,,
4106,JU06,さいたま新都心,,35.89360,139.63390,4106,,0,,,
4107,JU07,大宮,,35.90626,139.62396,4107,,0,,,
4108,,土呂,,35.93192,139.63220,4108,,0,,,
4109,,東大宮,,35.94836,139.64026,4109,,0,,,
4110,,蓮田,,35.98116,139.65296,4110,,0,,,
4111,,白岡,,36.01778,139.66688,4111,,0,,,
4112,,新白岡,,36.03825,139.67189,4112,,0,,,
4113,,久喜,,36.06581,139.67738,4113,,0,,,
4114,,東鷲宮,,36.08964,139.67970,4114,,0,,,
4115,,栗橋,,36.13572,139.69404,4115,,0,,,
4116,,古河,,36.19442,139.70972,4116,,0,,,
4117,,野木,,36.22990,139.73480,4117,,0,,,
4118,,間々田,,36.25790,139.76110,4118,,0,,,
4119,,小山,,36.31344,139.80663,4119,,0,,,
4120,,小金井,,36.37448,139.84228,4120,,0,,,
4121,,自治医大,,36.39538,139.85452,4121,,0,,,
4122,,石橋,,36.43624,139.86651,4122,,0,,,
4123,,雀宮,,36.49390,139.87708,4123,,0,,,
4124,,宇都宮,,36.55975,139.89872,4124,,0,,,
4125,,岡本,,36.59826,139.94425,4125,,0,,,
4126,,宝積寺,,36.63162,139.97952,4126,,0,,,
4127,,氏家,,36.68169,139.96210,4127,,0,,,
4128,,蒲須坂,,36.72074,139.95040,4128,,0,,,
4129,,片岡,,36.75468,139.94554,4129,,0,,,
4130,,矢板,,36.80662,139.93298,4130,,0,,,
4131,,野崎,,36.84381,139.95810,4131,,0,,,
4132,,西那須野,,36.88374,139.98639,4132,,0,,,
4133,,那須塩原,,36.93154,140.02106,4133,,0,,,
4134,,黒磯,,36.97012,140.06015,4134,,0,,,
4201,JY24,大崎,,35.61994,139.72824,4201,,0,,,
4202,JY23,五反田,,35.62626,139.72349,4202,,0,,,
4203,JY22,目黒,,35.63294,139.71590,4203,,0,,,
4204,JY21,恵比寿,,35.64668,139.71012,4204,,0,,,
4205,JY20,渋谷,,35.65815,139.70175,4205,,0,,,
4206,JY19,原宿,,35.67131,139.70273,4206,,0,,,
4207,JY18,代々木,,35.68380,139.70221,4207,,0,,,
4208,JY17,新宿,,35.68950,139.70090,4208,,0,,,
4209,JY16,新大久保,,35.70093,139.70026,4209,,0,,,
4210,JY15,高田馬場,,35.71290,139.70382,4210,,0,,,
4211,JY14,目白,,35.72039,139.70628,4211,,0,,,
4212,JY13,池袋,,35.73028,139.71108,4212,,0,,,
4213,JY12,大塚,,35.73178,139.72794,4213,,0,,,
4214,JY11,巣鴨,,35.73372,139.74035,4214,,0,,,
4215,JY10,駒込,,35.73686,139.74806,4215,,0,,,
4216,JY09,田端,,35.73748,139.76158,4216,,0,,,
4217,JY08,西日暮里,,35.73208,139.76678,4217,,0,,,
4218,JY07,日暮里,,35.72760,139.77117,4218,,0,,,
4219,JY06,鶯谷,,35.72146,139.77803,4219,,0,,,
4220,JY05,上野,,35.71376,139.77706,4220,,0,,,
4221,JY04,御徒町,,35.70720,139.77472,4221,,0,,,
4222,JY03,秋葉原,,35.69854,139.77304,4222,,0,,,
4223,JY02,神田,,35.69177,139.77088,4223,,0,,,
4224,JY01,東京,,35.68116,139.76713,4224,,0,,,
4225,JY30,有楽町,,35.67504,139.76326,4225,,0,,,
4226,JY29,新橋,,35.66630,139.75846,4226,,0,,,
4227,JY28,浜松町,,35.65541,139.75712,4227,,0,,,
4228,JY27,田町,,35.64574,139.74760,4228,,0,,,
4229,JY26,高輪ゲートウェイ,,35.63538,139.74064,4229,,0,,,
4230,JY25,品川,,35.62814,139.73854,4230,,0,,,
4301,JH13,東神奈川,,35.47788,139.63316,4301,,0,,,
4302,JH14,大口,,35.49230,139.64634,4302,,0,,,
4303,JH15,菊名,,35.50963,139.63010,4303,,0,,,
4304,JH16,新横浜,,35.50676,139.61742,4304,,0,,,
4305,JH17,小机,,35.50864,139.59962,4305,,0,,,
4306,JH18,鴨居,,35.51085,139.56695,4306,,0,,,
4307,JH19,中山,,35.51477,139.53922,4307,,0,,,
4308,JH20,十日市場,,35.52626,139.51650,4308,,0,,,
4309,JH21,長津田,,35.53163,139.49528,4309,,0,,,
4310,JH22,成瀬,,35.53541,139.47290,4310,,0,,,
4311,JH23,町田,,35.54154,139.44659,4311,,0,,,
4312,JH24,古淵,,35.55598,139.41924,4312,,0,,,
4313,JH25,淵野辺,,35.56836,139.39560,4313,,0,,,
4314,JH26,矢部,,35.57310,139.38654,4314,,0,,,
4315,JH27,相模原,,35.58148,139.37064,4315,,0,,,
4316,JH28,橋本,,35.59484,139.34510,4316,,0,,,
4317,JH29,相原,,35.60693,139.33168,4317,,0,,,
4318,JH30,八王子みなみ野,,35.63129,139.33098,4318,,0,,,
4319,JH31,片倉,,35.63968,139.34116,4319,,0,,,
4320,JH32,八王子,,35.65504,139.34025,4320,,0,,,
4401,JO19,東京,,35.68122,139.76653,4401,,0,,,
4402,JO18,新橋,,35.66630,139.75846,4402,,0,,,
4403,JO17,品川,,35.62866,139.73919,4403,,0,,,
4404,JO16,西大井,,35.60170,139.72160,4404,,0,,,
4405,JO15,武蔵小杉,,35.57468,139.66350,4405,,0,,,
4406,JO14,新川崎,,35.55172,139.67153,4406,,0,,,
4407,JO13,横浜,,35.46579,139.62240,4407,,0,,,
4408,JO12,保土ケ谷,,35.44722,139.60037,4408,,0,,,
4409,JO11,東戸塚,,35.42996,139.55650,4409,,0,,,
4410,JO10,戸塚,,35.40044,139.53431,4410,,0,,,
4411,JO09,大船,,35.35401,139.53133,4411,,0,,,
4412,JO08,北鎌倉,,35.33794,139.54456,4412,,0,,,
4413,JO07,鎌倉,,35.31931,139.55044,4413,,0,,,
4414,JO06,逗子,,35.29744,139.57836,4414,,0,,,
4415,JO05,東逗子,,35.29876,139.60182,4415,,0,,,
4416,JO04,田浦,,35.29284,139.63752,4416,,0,,,
4417,JO03,横須賀,,35.28422,139.65490,4417,,0,,,
4418,JO02,衣笠,,35.25711,139.66099,4418,,0,,,
4419,JO01,久里浜,,35.23318,139.70090,4419,,0,,,
